[
  {
    "id": 57,
    "name": "AIIMS",
    "lat": 28.568199,
    "lon": 77.207947,
    "lines": [
      "yellow"
    ]
  },
  {
    "id": 40,
    "name": "Adarsh Nagar",
    "lat": 28.696377,
    "lon": 77.208809,
    "lines": [
      "yellow"
    ]
  },
  {
    "id": 88,
    "name": "Akshardham",
    "lat": 28.618364,
    "lon": 77.279816,
    "lines": [
      "blue"
    ]
  },
  {
    "id": 517,
    "name": "Alpha 1",
    "lat": 28.470879,
    "lon": 77.512718,
    "lines": [
      "aqua"
    ]
  },
  {
    "id": 74,
    "name": "Anand Vihar",
    "lat": 28.647005,
    "lon": 77.316185,
    "lines": [
      "blue"
    ]
  },
  {
    "id": 66,
    "name": "Arjan Garh",
    "lat": 28.48082,
    "lon": 77.12587,
    "lines": [
      "yellow"
    ]
  },
  {
    "id": 227,
    "name": "Arthala",
    "lat": 28.6772,
    "lon": 77.391876,
    "lines": [
      "red"
    ]
  },
  {
    "id": 34,
    "name": "Ashok Park Main",
    "lat": 28.671572,
    "lon": 77.155159,
    "lines": [
      "green",
      "red"
    ]
  },
  {
    "id": 222,
    "name": "Ashram",
    "lat": 28.576065,
    "lon": 77.25753,
    "lines": [
      "pink"
    ]
  },
  {
    "id": 41,
    "name": "Azadpur",
    "lat": 28.707287,
    "lon": 77.179863,
    "lines": [
      "yellow"
    ]
  },
  {
    "id": 138,
    "name": "Badarpur Border",
    "lat": 28.4932,
    "lon": 77.30085,
    "lines": [
      "violet"
    ]
  },
  {
    "id": 143,
    "name": "Badkal Mor",
    "lat": 28.422707,
    "lon": 77.310234,
    "lines": [
      "violet"
    ]
  },
  {
    "id": 201,
    "name": "Bahadurgarh City",
    "lat": 28.690784,
    "lon": 76.935265,
    "lines": [
      "green"
    ]
  },
  {
    "id": 93,
    "name": "Barakhamba",
    "lat": 28.629662,
    "lon": 77.224876,
    "lines": [
      "blue"
    ]
  },
  {
    "id": 146,
    "name": "Bata Chowk",
    "lat": 28.386362,
    "lon": 77.298782,
    "lines": [
      "violet"
    ]
  },
  {
    "id": 150,
    "name": "Belvedere Towers (Rapid Metro)",
    "lat": 28.492065,
    "lon": 77.088142,
    "lines": [
      "rapid"
    ]
  },
  {
    "id": 204,
    "name": "Bhikaji Cama Place",
    "lat": 28.570208,
    "lon": 77.187866,
    "lines": [
      "magenta"
    ]
  },
  {
    "id": 81,
    "name": "Botanical Garden",
    "lat": 28.564198,
    "lon": 77.334656,
    "lines": [
      "blue",
      "magenta"
    ]
  },
  {
    "id": 202,
    "name": "Brigadier Hoshiyar Singh",
    "lat": 28.697428,
    "lon": 76.919128,
    "lines": [
      "green"
    ]
  },
  {
    "id": 52,
    "name": "Central Secretariat",
    "lat": 28.614973,
    "lon": 77.212029,
    "lines": [
      "yellow",
      "violet"
    ]
  },
  {
    "id": 47,
    "name": "Chandni Chowk",
    "lat": 28.656443,
    "lon": 77.229218,
    "lines": [
      "yellow"
    ]
  },
  {
    "id": 48,
    "name": "Chawri Bazar",
    "lat": 28.649635,
    "lon": 77.22628,
    "lines": [
      "yellow"
    ]
  },
  {
    "id": 63,
    "name": "Chhattarpur",
    "lat": 28.506584,
    "lon": 77.174866,
    "lines": [
      "yellow"
    ]
  },
  {
    "id": 184,
    "name": "Chirag Delhi",
    "lat": 28.541229,
    "lon": 77.229385,
    "lines": [
      "magenta"
    ]
  },
  {
    "id": 46,
    "name": "Civil Lines",
    "lat": 28.676945,
    "lon": 77.224953,
    "lines": [
      "yellow"
    ]
  },
  {
    "id": 151,
    "name": "Cyber City (Rapid Metro)",
    "lat": 28.498478,
    "lon": 77.089088,
    "lines": [
      "rapid"
    ]
  },
  {
    "id": 195,
    "name": "Dabri Mor - Janakpuri South",
    "lat": 28.615904,
    "lon": 77.085258,
    "lines": [
      "magenta"
    ]
  },
  {
    "id": 194,
    "name": "Dashrath Puri",
    "lat": 28.602333,
    "lon": 77.08255,
    "lines": [
      "magenta"
    ]
  },
  {
    "id": 155,
    "name": "Delhi Aerocity",
    "lat": 28.548792,
    "lon": 77.120743,
    "lines": [
      "orange"
    ]
  },
  {
    "id": 180,
    "name": "Delhi Cantt.",
    "lat": 28.608641,
    "lon": 77.140373,
    "lines": [
      "pink"
    ]
  },
  {
    "id": 158,
    "name": "Delhi Gate",
    "lat": 28.640488,
    "lon": 77.240303,
    "lines": [
      "pink"
    ]
  },
  {
    "id": 518,
    "name": "Delta 1",
    "lat": 28.478374,
    "lon": 77.525581,
    "lines": [
      "aqua"
    ]
  },
  {
    "id": 520,
    "name": "Depot Station",
    "lat": 28.488651,
    "lon": 77.544075,
    "lines": [
      "aqua"
    ]
  },
  {
    "id": 241,
    "name": "Dhansa Bus Stand",
    "lat": 28.611858,
    "lon": 76.975426,
    "lines": [
      "grey"
    ]
  },
  {
    "id": 156,
    "name": "Dhaula Kuan",
    "lat": 28.591776,
    "lon": 77.161545,
    "lines": [
      "orange"
    ]
  },
  {
    "id": 56,
    "name": "Dilli Haat - INA",
    "lat": 28.575195,
    "lon": 77.209473,
    "lines": [
      "yellow",
      "pink"
    ]
  },
  {
    "id": 1,
    "name": "Dilshad Garden",
    "lat": 28.675991,
    "lon": 77.321495,
    "lines": [
      "red"
    ]
  },
  {
    "id": 181,
    "name": "Durgabai Deshmukh South Campus",
    "lat": 28.589376,
    "lon": 77.169518,
    "lines": [
      "pink"
    ]
  },
  {
    "id": 113,
    "name": "Dwarka",
    "lat": 28.614899,
    "lon": 77.022629,
    "lines": [
      "blue"
    ]
  },
  {
    "id": 112,
    "name": "Dwarka Mor",
    "lat": 28.619366,
    "lon": 77.033188,
    "lines": [
      "blue"
    ]
  },
  {
    "id": 118,
    "name": "Dwarka Sector - 10",
    "lat": 28.581108,
    "lon": 77.05719,
    "lines": [
      "blue"
    ]
  },
  {
    "id": 117,
    "name": "Dwarka Sector - 11",
    "lat": 28.58642,
    "lon": 77.049255,
    "lines": [
      "blue"
    ]
  },
  {
    "id": 116,
    "name": "Dwarka Sector - 12",
    "lat": 28.592234,
    "lon": 77.040558,
    "lines": [
      "blue"
    ]
  },
  {
    "id": 115,
    "name": "Dwarka Sector - 13",
    "lat": 28.59705,
    "lon": 77.033043,
    "lines": [
      "blue"
    ]
  },
  {
    "id": 114,
    "name": "Dwarka Sector - 14",
    "lat": 28.602232,
    "lon": 77.02594,
    "lines": [
      "blue"
    ]
  },
  {
    "id": 121,
    "name": "Dwarka Sector - 21",
    "lat": 28.552322,
    "lon": 77.056198,
    "lines": [
      "blue",
      "orange"
    ]
  },
  {
    "id": 120,
    "name": "Dwarka Sector - 8",
    "lat": 28.565706,
    "lon": 77.064896,
    "lines": [
      "blue"
    ]
  },
  {
    "id": 119,
    "name": "Dwarka Sector - 9",
    "lat": 28.574284,
    "lon": 77.065086,
    "lines": [
      "blue"
    ]
  },
  {
    "id": 177,
    "name": "ESI Basai Darapur",
    "lat": 28.658159,
    "lon": 77.127319,
    "lines": [
      "pink"
    ]
  },
  {
    "id": 213,
    "name": "East Azad Nagar",
    "lat": 28.665043,
    "lon": 77.284599,
    "lines": [
      "pink"
    ]
  },
  {
    "id": 208,
    "name": "East Vinod Nagar - Mayur Vihar-II",
    "lat": 28.620052,
    "lon": 77.305588,
    "lines": [
      "pink"
    ]
  },
  {
    "id": 147,
    "name": "Escorts Mujesar",
    "lat": 28.370199,
    "lon": 77.315002,
    "lines": [
      "violet"
    ]
  },
  {
    "id": 519,
    "name": "GNIDA Office",
    "lat": 28.484531,
    "lon": 77.536621,
    "lines": [
      "aqua"
    ]
  },
  {
    "id": 197,
    "name": "Ghevra Metro station",
    "lat": 28.685289,
    "lon": 76.993584,
    "lines": [
      "green"
    ]
  },
  {
    "id": 65,
    "name": "Ghitorni",
    "lat": 28.49383,
    "lon": 77.149071,
    "lines": [
      "yellow"
    ]
  },
  {
    "id": 216,
    "name": "Gokulpuri",
    "lat": 28.703009,
    "lon": 77.286301,
    "lines": [
      "pink"
    ]
  },
  {
    "id": 80,
    "name": "Golf Course",
    "lat": 28.566917,
    "lon": 77.345726,
    "lines": [
      "blue"
    ]
  },
  {
    "id": 132,
    "name": "Govind Puri",
    "lat": 28.544413,
    "lon": 77.264259,
    "lines": [
      "violet"
    ]
  },
  {
    "id": 183,
    "name": "Greater Kailash",
    "lat": 28.541836,
    "lon": 77.238243,
    "lines": [
      "magenta"
    ]
  },
  {
    "id": 58,
    "name": "Green Park",
    "lat": 28.559853,
    "lon": 77.206902,
    "lines": [
      "yellow"
    ]
  },
  {
    "id": 43,
    "name": "Guru Tegh Bahadur Nagar",
    "lat": 28.698195,
    "lon": 77.206985,
    "lines": [
      "yellow"
    ]
  },
  {
    "id": 67,
    "name": "Gurudronacharya",
    "lat": 28.482075,
    "lon": 77.102219,
    "lines": [
      "yellow"
    ]
  },
  {
    "id": 38,
    "name": "Haiderpur Badli Mor",
    "lat": 28.718657,
    "lon": 77.149956,
    "lines": [
      "yellow"
    ]
  },
  {
    "id": 133,
    "name": "Harkesh Nagar Okhla",
    "lat": 28.543194,
    "lon": 77.275955,
    "lines": [
      "violet"
    ]
  },
  {
    "id": 59,
    "name": "Hauz Khas",
    "lat": 28.543346,
    "lon": 77.206673,
    "lines": [
      "yellow",
      "magenta"
    ]
  },
  {
    "id": 226,
    "name": "Hindon River",
    "lat": 28.673508,
    "lon": 77.40654,
    "lines": [
      "red"
    ]
  },
  {
    "id": 71,
    "name": "Huda City Centre",
    "lat": 28.459118,
    "lon": 77.072586,
    "lines": [
      "yellow"
    ]
  },
  {
    "id": 70,
    "name": "IFFCO Chowk",
    "lat": 28.472137,
    "lon": 77.072502,
    "lines": [
      "yellow"
    ]
  },
  {
    "id": 154,
    "name": "IGI Airport",
    "lat": 28.554869,
    "lon": 77.087921,
    "lines": [
      "orange"
    ]
  },
  {
    "id": 186,
    "name": "IIT",
    "lat": 28.547194,
    "lon": 77.193832,
    "lines": [
      "magenta"
    ]
  },
  {
    "id": 210,
    "name": "IP Extension",
    "lat": 28.631599,
    "lon": 77.310898,
    "lines": [
      "pink"
    ]
  },
  {
    "id": 122,
    "name": "ITO",
    "lat": 28.627205,
    "lon": 77.240952,
    "lines": [
      "violet"
    ]
  },
  {
    "id": 13,
    "name": "Inderlok",
    "lat": 28.673452,
    "lon": 77.170235,
    "lines": [
      "red",
      "green"
    ]
  },
  {
    "id": 90,
    "name": "Indraprastha",
    "lat": 28.620272,
    "lon": 77.250076,
    "lines": [
      "blue"
    ]
  },
  {
    "id": 214,
    "name": "Jafrabad",
    "lat": 28.682943,
    "lon": 77.27507,
    "lines": [
      "pink"
    ]
  },
  {
    "id": 39,
    "name": "Jahangirpuri",
    "lat": 28.72818,
    "lon": 77.16124,
    "lines": [
      "yellow"
    ]
  },
  {
    "id": 159,
    "name": "Jama Masjid",
    "lat": 28.650393,
    "lon": 77.237556,
    "lines": [
      "pink"
    ]
  },
  {
    "id": 165,
    "name": "Jamia Millia Islamia",
    "lat": 28.562944,
    "lon": 77.286209,
    "lines": [
      "magenta"
    ]
  },
  {
    "id": 107,
    "name": "Janak Puri East",
    "lat": 28.633121,
    "lon": 77.086578,
    "lines": [
      "blue"
    ]
  },
  {
    "id": 108,
    "name": "Janak Puri West",
    "lat": 28.629637,
    "lon": 77.077866,
    "lines": [
      "blue",
      "magenta"
    ]
  },
  {
    "id": 126,
    "name": "Jangpura",
    "lat": 28.583231,
    "lon": 77.239662,
    "lines": [
      "violet"
    ]
  },
  {
    "id": 123,
    "name": "Janpath",
    "lat": 28.627817,
    "lon": 77.218956,
    "lines": [
      "violet"
    ]
  },
  {
    "id": 163,
    "name": "Jasola Vihar Shaheen Bagh",
    "lat": 28.546005,
    "lon": 77.296715,
    "lines": [
      "magenta"
    ]
  },
  {
    "id": 134,
    "name": "Jasola-Apollo",
    "lat": 28.538084,
    "lon": 77.285538,
    "lines": [
      "violet"
    ]
  },
  {
    "id": 125,
    "name": "Jawahar Lal Nehru Stadium",
    "lat": 28.590475,
    "lon": 77.23307,
    "lines": [
      "violet"
    ]
  },
  {
    "id": 95,
    "name": "Jhandewalan",
    "lat": 28.644312,
    "lon": 77.199791,
    "lines": [
      "blue"
    ]
  },
  {
    "id": 2,
    "name": "Jhilmil",
    "lat": 28.675648,
    "lon": 77.312393,
    "lines": [
      "red"
    ]
  },
  {
    "id": 217,
    "name": "Johri Enclave",
    "lat": 28.713297,
    "lon": 77.290154,
    "lines": [
      "pink"
    ]
  },
  {
    "id": 55,
    "name": "Jorbagh",
    "lat": 28.587234,
    "lon": 77.212662,
    "lines": [
      "yellow"
    ]
  },
  {
    "id": 129,
    "name": "Kailash Colony",
    "lat": 28.554617,
    "lon": 77.239738,
    "lines": [
      "violet"
    ]
  },
  {
    "id": 162,
    "name": "Kalindi Kunj",
    "lat": 28.542835,
    "lon": 77.310173,
    "lines": [
      "magenta"
    ]
  },
  {
    "id": 131,
    "name": "Kalkaji Mandir",
    "lat": 28.549532,
    "lon": 77.258789,
    "lines": [
      "violet",
      "magenta"
    ]
  },
  {
    "id": 14,
    "name": "Kanhaiya Nagar",
    "lat": 28.682386,
    "lon": 77.162552,
    "lines": [
      "red"
    ]
  },
  {
    "id": 75,
    "name": "Karkarduma",
    "lat": 28.648653,
    "lon": 77.304581,
    "lines": [
      "blue"
    ]
  },
  {
    "id": 211,
    "name": "Karkarduma Court",
    "lat": 28.649473,
    "lon": 77.295341,
    "lines": [
      "pink"
    ]
  },
  {
    "id": 96,
    "name": "Karol Bagh",
    "lat": 28.643925,
    "lon": 77.188416,
    "lines": [
      "blue"
    ]
  },
  {
    "id": 8,
    "name": "Kashmere Gate",
    "lat": 28.667879,
    "lon": 77.228012,
    "lines": [
      "red",
      "yellow",
      "violet"
    ]
  },
  {
    "id": 73,
    "name": "Kaushambi",
    "lat": 28.645428,
    "lon": 77.322273,
    "lines": [
      "blue"
    ]
  },
  {
    "id": 15,
    "name": "Keshav Puram",
    "lat": 28.688944,
    "lon": 77.161774,
    "lines": [
      "red"
    ]
  },
  {
    "id": 124,
    "name": "Khan Market",
    "lat": 28.602682,
    "lon": 77.228096,
    "lines": [
      "violet"
    ]
  },
  {
    "id": 100,
    "name": "Kirti Nagar",
    "lat": 28.655773,
    "lon": 77.148499,
    "lines": [
      "blue",
      "green"
    ]
  },
  {
    "id": 515,
    "name": "Knowledge Park",
    "lat": 28.456865,
    "lon": 77.500298,
    "lines": [
      "aqua"
    ]
  },
  {
    "id": 17,
    "name": "Kohat Enclave",
    "lat": 28.697943,
    "lon": 77.140465,
    "lines": [
      "red"
    ]
  },
  {
    "id": 212,
    "name": "Krishna Nagar",
    "lat": 28.65782,
    "lon": 77.290306,
    "lines": [
      "pink"
    ]
  },
  {
    "id": 127,
    "name": "Lajpat Nagar",
    "lat": 28.570705,
    "lon": 77.233124,
    "lines": [
      "violet",
      "pink"
    ]
  },
  {
    "id": 160,
    "name": "Lal Quila",
    "lat": 28.657576,
    "lon": 77.236595,
    "lines": [
      "pink"
    ]
  },
  {
    "id": 78,
    "name": "Laxmi Nagar",
    "lat": 28.629843,
    "lon": 77.276428,
    "lines": [
      "blue"
    ]
  },
  {
    "id": 54,
    "name": "Lok Kalyan Marg",
    "lat": 28.597519,
    "lon": 77.209122,
    "lines": [
      "yellow"
    ]
  },
  {
    "id": 69,
    "name": "MG Road",
    "lat": 28.47967,
    "lon": 77.080444,
    "lines": [
      "yellow"
    ]
  },
  {
    "id": 31,
    "name": "Madipur",
    "lat": 28.676418,
    "lon": 77.117294,
    "lines": [
      "green"
    ]
  },
  {
    "id": 26,
    "name": "Maharaja Surajmal Stadium",
    "lat": 28.681833,
    "lon": 77.073891,
    "lines": [
      "green"
    ]
  },
  {
    "id": 173,
    "name": "Majlis Park",
    "lat": 28.724157,
    "lon": 77.182068,
    "lines": [
      "pink"
    ]
  },
  {
    "id": 230,
    "name": "Major Mohit Sharma Rajender Nagar",
    "lat": 28.678095,
    "lon": 77.359528,
    "lines": [
      "red"
    ]
  },
  {
    "id": 60,
    "name": "Malviya Nagar",
    "lat": 28.52817,
    "lon": 77.205612,
    "lines": [
      "yellow"
    ]
  },
  {
    "id": 209,
    "name": "Mandawali - West Vinod Nagar",
    "lat": 28.624861,
    "lon": 77.304146,
    "lines": [
      "pink"
    ]
  },
  {
    "id": 92,
    "name": "Mandi House",
    "lat": 28.625816,
    "lon": 77.234726,
    "lines": [
      "blue",
      "violet"
    ]
  },
  {
    "id": 3,
    "name": "Mansrover park",
    "lat": 28.675352,
    "lon": 77.301178,
    "lines": [
      "red"
    ]
  },
  {
    "id": 215,
    "name": "Maujpur - Babarpur",
    "lat": 28.692057,
    "lon": 77.280922,
    "lines": [
      "pink"
    ]
  },
  {
    "id": 178,
    "name": "Mayapuri",
    "lat": 28.637098,
    "lon": 77.129738,
    "lines": [
      "pink"
    ]
  },
  {
    "id": 86,
    "name": "Mayur Vihar Ext",
    "lat": 28.594124,
    "lon": 77.294495,
    "lines": [
      "blue"
    ]
  },
  {
    "id": 224,
    "name": "Mayur Vihar Pocket 1",
    "lat": 28.606598,
    "lon": 77.296326,
    "lines": [
      "pink"
    ]
  },
  {
    "id": 87,
    "name": "Mayur Vihar-I",
    "lat": 28.604425,
    "lon": 77.289421,
    "lines": [
      "blue"
    ]
  },
  {
    "id": 141,
    "name": "Mewala Maharajpur",
    "lat": 28.4485,
    "lon": 77.308098,
    "lines": [
      "violet"
    ]
  },
  {
    "id": 42,
    "name": "Model Town",
    "lat": 28.702833,
    "lon": 77.193764,
    "lines": [
      "yellow"
    ]
  },
  {
    "id": 136,
    "name": "Mohan Estate",
    "lat": 28.51959,
    "lon": 77.294518,
    "lines": [
      "violet"
    ]
  },
  {
    "id": 228,
    "name": "Mohan Nagar",
    "lat": 28.67856,
    "lon": 77.384209,
    "lines": [
      "red"
    ]
  },
  {
    "id": 128,
    "name": "Moolchand",
    "lat": 28.564629,
    "lon": 77.234222,
    "lines": [
      "violet"
    ]
  },
  {
    "id": 101,
    "name": "Moti Nagar",
    "lat": 28.657803,
    "lon": 77.140488,
    "lines": [
      "blue"
    ]
  },
  {
    "id": 152,
    "name": "Moulsari Avenue (Rapid Metro)",
    "lat": 28.501572,
    "lon": 77.094536,
    "lines": [
      "rapid"
    ]
  },
  {
    "id": 22,
    "name": "Mundka",
    "lat": 28.682411,
    "lon": 77.028282,
    "lines": [
      "green"
    ]
  },
  {
    "id": 196,
    "name": "Mundka Industrial Area (M.I.A)",
    "lat": 28.68396,
    "lon": 76.989822,
    "lines": [
      "green"
    ]
  },
  {
    "id": 188,
    "name": "Munirka",
    "lat": 28.557821,
    "lon": 77.174026,
    "lines": [
      "magenta"
    ]
  },
  {
    "id": 140,
    "name": "NHPC Chowk",
    "lat": 28.462435,
    "lon": 77.305252,
    "lines": [
      "violet"
    ]
  },
  {
    "id": 505,
    "name": "NSEZ",
    "lat": 28.532248,
    "lon": 77.394951,
    "lines": [
      "aqua"
    ]
  },
  {
    "id": 240,
    "name": "Najafgarh",
    "lat": 28.613316,
    "lon": 76.986259,
    "lines": [
      "grey"
    ]
  },
  {
    "id": 239,
    "name": "Nangli",
    "lat": 28.61722,
    "lon": 77.010345,
    "lines": [
      "grey"
    ]
  },
  {
    "id": 25,
    "name": "Nangloi",
    "lat": 28.682356,
    "lon": 77.064728,
    "lines": [
      "green"
    ]
  },
  {
    "id": 24,
    "name": "Nangloi Railway Station",
    "lat": 28.682091,
    "lon": 77.05619,
    "lines": [
      "green"
    ]
  },
  {
    "id": 179,
    "name": "Naraina Vihar",
    "lat": 28.624121,
    "lon": 77.136482,
    "lines": [
      "pink"
    ]
  },
  {
    "id": 111,
    "name": "Nawada",
    "lat": 28.620222,
    "lon": 77.044991,
    "lines": [
      "blue"
    ]
  },
  {
    "id": 145,
    "name": "Neelam Chowk Ajronda",
    "lat": 28.400707,
    "lon": 77.309105,
    "lines": [
      "violet"
    ]
  },
  {
    "id": 182,
    "name": "Nehru Enclave",
    "lat": 28.545856,
    "lon": 77.25116,
    "lines": [
      "magenta"
    ]
  },
  {
    "id": 130,
    "name": "Nehru Place",
    "lat": 28.551134,
    "lon": 77.251511,
    "lines": [
      "violet"
    ]
  },
  {
    "id": 16,
    "name": "Netaji Subash Place",
    "lat": 28.695637,
    "lon": 77.152428,
    "lines": [
      "red",
      "pink"
    ]
  },
  {
    "id": 85,
    "name": "New Ashok Nagar",
    "lat": 28.58847,
    "lon": 77.30146,
    "lines": [
      "blue"
    ]
  },
  {
    "id": 49,
    "name": "New Delhi",
    "lat": 28.642944,
    "lon": 77.222351,
    "lines": [
      "yellow",
      "orange"
    ]
  },
  {
    "id": 77,
    "name": "Nirman Vihar",
    "lat": 28.637049,
    "lon": 77.287872,
    "lines": [
      "blue"
    ]
  },
  {
    "id": 79,
    "name": "Noida City Centre",
    "lat": 28.574593,
    "lon": 77.356117,
    "lines": [
      "blue"
    ]
  },
  {
    "id": 238,
    "name": "Noida Electronic City",
    "lat": 28.628685,
    "lon": 77.375229,
    "lines": [
      "blue"
    ]
  },
  {
    "id": 84,
    "name": "Noida Sec -15",
    "lat": 28.585018,
    "lon": 77.311584,
    "lines": [
      "blue"
    ]
  },
  {
    "id": 83,
    "name": "Noida Sec -16",
    "lat": 28.577921,
    "lon": 77.318115,
    "lines": [
      "blue"
    ]
  },
  {
    "id": 82,
    "name": "Noida Sec -18",
    "lat": 28.570843,
    "lon": 77.326088,
    "lines": [
      "blue"
    ]
  },
  {
    "id": 233,
    "name": "Noida Sec-34",
    "lat": 28.580229,
    "lon": 77.363518,
    "lines": [
      "aqua"
    ]
  },
  {
    "id": 234,
    "name": "Noida Sec-52",
    "lat": 28.586849,
    "lon": 77.372749,
    "lines": [
      "aqua"
    ]
  },
  {
    "id": 236,
    "name": "Noida Sec-59",
    "lat": 28.609089,
    "lon": 77.372955,
    "lines": [
      "aqua"
    ]
  },
  {
    "id": 235,
    "name": "Noida Sec-61",
    "lat": 28.597677,
    "lon": 77.372368,
    "lines": [
      "aqua"
    ]
  },
  {
    "id": 237,
    "name": "Noida Sec-62",
    "lat": 28.616991,
    "lon": 77.373611,
    "lines": [
      "aqua"
    ]
  },
  {
    "id": 503,
    "name": "Noida Sector 101",
    "lat": 28.556065,
    "lon": 77.385056,
    "lines": [
      "aqua"
    ]
  },
  {
    "id": 507,
    "name": "Noida Sector 137",
    "lat": 28.510817,
    "lon": 77.403625,
    "lines": [
      "aqua"
    ]
  },
  {
    "id": 508,
    "name": "Noida Sector 142",
    "lat": 28.498999,
    "lon": 77.412567,
    "lines": [
      "aqua"
    ]
  },
  {
    "id": 509,
    "name": "Noida Sector 143",
    "lat": 28.494246,
    "lon": 77.422318,
    "lines": [
      "aqua"
    ]
  },
  {
    "id": 510,
    "name": "Noida Sector 144",
    "lat": 28.486376,
    "lon": 77.432968,
    "lines": [
      "aqua"
    ]
  },
  {
    "id": 511,
    "name": "Noida Sector 145",
    "lat": 28.47913,
    "lon": 77.442307,
    "lines": [
      "aqua"
    ]
  },
  {
    "id": 512,
    "name": "Noida Sector 146",
    "lat": 28.468822,
    "lon": 77.455101,
    "lines": [
      "aqua"
    ]
  },
  {
    "id": 513,
    "name": "Noida Sector 147",
    "lat": 28.4594,
    "lon": 77.465965,
    "lines": [
      "aqua"
    ]
  },
  {
    "id": 514,
    "name": "Noida Sector 148",
    "lat": 28.448021,
    "lon": 77.476692,
    "lines": [
      "aqua"
    ]
  },
  {
    "id": 501,
    "name": "Noida Sector 50",
    "lat": 28.574547,
    "lon": 77.378357,
    "lines": [
      "aqua"
    ]
  },
  {
    "id": 500,
    "name": "Noida Sector 51",
    "lat": 28.585548,
    "lon": 77.375374,
    "lines": [
      "aqua"
    ]
  },
  {
    "id": 502,
    "name": "Noida Sector 76",
    "lat": 28.565445,
    "lon": 77.37973,
    "lines": [
      "aqua"
    ]
  },
  {
    "id": 504,
    "name": "Noida Sector 81",
    "lat": 28.549259,
    "lon": 77.390099,
    "lines": [
      "aqua"
    ]
  },
  {
    "id": 506,
    "name": "Noida Sector 83",
    "lat": 28.522284,
    "lon": 77.396477,
    "lines": [
      "aqua"
    ]
  },
  {
    "id": 161,
    "name": "Okhla Bird Sanctuary",
    "lat": 28.552816,
    "lon": 77.321564,
    "lines": [
      "magenta"
    ]
  },
  {
    "id": 167,
    "name": "Okhla NSIC",
    "lat": 28.554575,
    "lon": 77.26487,
    "lines": [
      "magenta"
    ]
  },
  {
    "id": 164,
    "name": "Okhla Vihar",
    "lat": 28.561255,
    "lon": 77.291916,
    "lines": [
      "magenta"
    ]
  },
  {
    "id": 144,
    "name": "Old Faridabad",
    "lat": 28.412172,
    "lon": 77.311272,
    "lines": [
      "violet"
    ]
  },
  {
    "id": 193,
    "name": "Palam",
    "lat": 28.589067,
    "lon": 77.082954,
    "lines": [
      "magenta"
    ]
  },
  {
    "id": 185,
    "name": "Panchsheel Park",
    "lat": 28.542339,
    "lon": 77.220512,
    "lines": [
      "magenta"
    ]
  },
  {
    "id": 200,
    "name": "Pandit Shree Ram Sharma",
    "lat": 28.689213,
    "lon": 76.951088,
    "lines": [
      "green"
    ]
  },
  {
    "id": 516,
    "name": "Pari Chowk",
    "lat": 28.463331,
    "lon": 77.508308,
    "lines": [
      "aqua"
    ]
  },
  {
    "id": 30,
    "name": "Paschim Vihar (East)",
    "lat": 28.677305,
    "lon": 77.112251,
    "lines": [
      "green"
    ]
  },
  {
    "id": 29,
    "name": "Paschim Vihar (West)",
    "lat": 28.678539,
    "lon": 77.102119,
    "lines": [
      "green"
    ]
  },
  {
    "id": 51,
    "name": "Patel Chowk",
    "lat": 28.622967,
    "lon": 77.212288,
    "lines": [
      "yellow"
    ]
  },
  {
    "id": 98,
    "name": "Patel Nagar",
    "lat": 28.645037,
    "lon": 77.167046,
    "lines": [
      "blue"
    ]
  },
  {
    "id": 28,
    "name": "Peera Garhi",
    "lat": 28.67972,
    "lon": 77.092491,
    "lines": [
      "green"
    ]
  },
  {
    "id": 149,
    "name": "Phase 2 (Rapid Metro)",
    "lat": 28.488371,
    "lon": 77.092865,
    "lines": [
      "rapid"
    ]
  },
  {
    "id": 153,
    "name": "Phase 3 (Rapid Metro)",
    "lat": 28.494329,
    "lon": 77.093552,
    "lines": [
      "rapid"
    ]
  },
  {
    "id": 168,
    "name": "Phase-I (Rapid Metro)",
    "lat": 28.471981,
    "lon": 77.094009,
    "lines": [
      "rapid"
    ]
  },
  {
    "id": 18,
    "name": "Pitampura",
    "lat": 28.70318,
    "lon": 77.132355,
    "lines": [
      "red"
    ]
  },
  {
    "id": 11,
    "name": "Pratap Nagar",
    "lat": 28.666632,
    "lon": 77.196869,
    "lines": [
      "red"
    ]
  },
  {
    "id": 76,
    "name": "Preet Vihar",
    "lat": 28.641352,
    "lon": 77.295158,
    "lines": [
      "blue"
    ]
  },
  {
    "id": 10,
    "name": "Pul Bangash",
    "lat": 28.66571,
    "lon": 77.206329,
    "lines": [
      "red"
    ]
  },
  {
    "id": 33,
    "name": "Punjabi Bagh",
    "lat": 28.672943,
    "lon": 77.146011,
    "lines": [
      "green"
    ]
  },
  {
    "id": 176,
    "name": "Punjabi Bagh West",
    "lat": 28.672747,
    "lon": 77.139183,
    "lines": [
      "pink"
    ]
  },
  {
    "id": 62,
    "name": "Qutab Minar",
    "lat": 28.512714,
    "lon": 77.185791,
    "lines": [
      "yellow"
    ]
  },
  {
    "id": 94,
    "name": "RK Ashram Marg",
    "lat": 28.639217,
    "lon": 77.206291,
    "lines": [
      "blue"
    ]
  },
  {
    "id": 187,
    "name": "RK Puram",
    "lat": 28.550486,
    "lon": 77.184952,
    "lines": [
      "magenta"
    ]
  },
  {
    "id": 231,
    "name": "Raj Bagh",
    "lat": 28.677122,
    "lon": 77.346466,
    "lines": [
      "red"
    ]
  },
  {
    "id": 220,
    "name": "Raja Nahar Singh",
    "lat": 28.339899,
    "lon": 77.331657,
    "lines": [
      "violet"
    ]
  },
  {
    "id": 23,
    "name": "Rajdhani Park",
    "lat": 28.682217,
    "lon": 77.043869,
    "lines": [
      "green"
    ]
  },
  {
    "id": 97,
    "name": "Rajendra Place",
    "lat": 28.64241,
    "lon": 77.191833,
    "lines": [
      "blue"
    ]
  },
  {
    "id": 50,
    "name": "Rajiv Chowk",
    "lat": 28.632896,
    "lon": 77.219574,
    "lines": [
      "yellow",
      "blue"
    ]
  },
  {
    "id": 103,
    "name": "Rajouri Garden",
    "lat": 28.649157,
    "lon": 77.122749,
    "lines": [
      "blue",
      "pink"
    ]
  },
  {
    "id": 102,
    "name": "Ramesh Nagar",
    "lat": 28.652809,
    "lon": 77.131462,
    "lines": [
      "blue"
    ]
  },
  {
    "id": 21,
    "name": "Rithala",
    "lat": 28.720821,
    "lon": 77.105042,
    "lines": [
      "red"
    ]
  },
  {
    "id": 19,
    "name": "Rohini East",
    "lat": 28.707941,
    "lon": 77.125732,
    "lines": [
      "red"
    ]
  },
  {
    "id": 37,
    "name": "Rohini Sector 18-19",
    "lat": 28.740192,
    "lon": 77.135574,
    "lines": [
      "yellow"
    ]
  },
  {
    "id": 20,
    "name": "Rohini West",
    "lat": 28.715008,
    "lon": 77.115746,
    "lines": [
      "red"
    ]
  },
  {
    "id": 192,
    "name": "Sadar Bazar Contonment",
    "lat": 28.577108,
    "lon": 77.111305,
    "lines": [
      "magenta"
    ]
  },
  {
    "id": 61,
    "name": "Saket",
    "lat": 28.520638,
    "lon": 77.199379,
    "lines": [
      "yellow"
    ]
  },
  {
    "id": 36,
    "name": "Samaypur Badli",
    "lat": 28.742872,
    "lon": 77.146545,
    "lines": [
      "yellow"
    ]
  },
  {
    "id": 219,
    "name": "Sant Surdas (Sihi)",
    "lat": 28.354666,
    "lon": 77.316261,
    "lines": [
      "violet"
    ]
  },
  {
    "id": 139,
    "name": "Sarai",
    "lat": 28.47794,
    "lon": 77.304932,
    "lines": [
      "violet"
    ]
  },
  {
    "id": 223,
    "name": "Sarai Kale Khan - Nizamuddin",
    "lat": 28.5889,
    "lon": 77.253189,
    "lines": [
      "pink"
    ]
  },
  {
    "id": 135,
    "name": "Sarita Vihar",
    "lat": 28.528622,
    "lon": 77.288345,
    "lines": [
      "violet"
    ]
  },
  {
    "id": 205,
    "name": "Sarojini Nagar",
    "lat": 28.570208,
    "lon": 77.187866,
    "lines": [
      "magenta"
    ]
  },
  {
    "id": 35,
    "name": "Satguru Ram Singh Marg",
    "lat": 28.662188,
    "lon": 77.157829,
    "lines": [
      "green"
    ]
  },
  {
    "id": 169,
    "name": "Sector 42-43 (Rapid Metro)",
    "lat": 28.458475,
    "lon": 77.09684,
    "lines": [
      "rapid"
    ]
  },
  {
    "id": 170,
    "name": "Sector 53-54 (Rapid Metro)",
    "lat": 28.447533,
    "lon": 77.100487,
    "lines": [
      "rapid"
    ]
  },
  {
    "id": 171,
    "name": "Sector 54 Chowk (Rapid Metro)",
    "lat": 28.434212,
    "lon": 77.104782,
    "lines": [
      "rapid"
    ]
  },
  {
    "id": 172,
    "name": "Sector 55-56 (Rapid Metro)",
    "lat": 28.424587,
    "lon": 77.105042,
    "lines": [
      "rapid"
    ]
  },
  {
    "id": 142,
    "name": "Sector-28",
    "lat": 28.440586,
    "lon": 77.305992,
    "lines": [
      "violet"
    ]
  },
  {
    "id": 6,
    "name": "Seelam Pur",
    "lat": 28.670324,
    "lon": 77.267311,
    "lines": [
      "red"
    ]
  },
  {
    "id": 99,
    "name": "Shadipur",
    "lat": 28.65143,
    "lon": 77.156021,
    "lines": [
      "blue"
    ]
  },
  {
    "id": 4,
    "name": "Shahdara",
    "lat": 28.673531,
    "lon": 77.28727,
    "lines": [
      "red"
    ]
  },
  {
    "id": 232,
    "name": "Shaheed Nagar",
    "lat": 28.676615,
    "lon": 77.333809,
    "lines": [
      "red"
    ]
  },
  {
    "id": 225,
    "name": "Shaheed Sthal (New Bus Adda)",
    "lat": 28.670177,
    "lon": 77.416031,
    "lines": [
      "red"
    ]
  },
  {
    "id": 175,
    "name": "Shakurpur",
    "lat": 28.685781,
    "lon": 77.149651,
    "lines": [
      "pink"
    ]
  },
  {
    "id": 174,
    "name": "Shalimar Bagh",
    "lat": 28.70182,
    "lon": 77.165184,
    "lines": [
      "pink"
    ]
  },
  {
    "id": 190,
    "name": "Shankar Vihar",
    "lat": 28.560787,
    "lon": 77.140442,
    "lines": [
      "magenta"
    ]
  },
  {
    "id": 12,
    "name": "Shastri Nagar",
    "lat": 28.670135,
    "lon": 77.181679,
    "lines": [
      "red"
    ]
  },
  {
    "id": 7,
    "name": "Shastri Park",
    "lat": 28.668451,
    "lon": 77.250404,
    "lines": [
      "red"
    ]
  },
  {
    "id": 218,
    "name": "Shiv Vihar",
    "lat": 28.721863,
    "lon": 77.289635,
    "lines": [
      "pink"
    ]
  },
  {
    "id": 32,
    "name": "Shivaji Park",
    "lat": 28.674965,
    "lon": 77.128258,
    "lines": [
      "green"
    ]
  },
  {
    "id": 157,
    "name": "Shivaji Stadium",
    "lat": 28.629007,
    "lon": 77.209213,
    "lines": [
      "orange",
      "pink"
    ]
  },
  {
    "id": 229,
    "name": "Shyam Park",
    "lat": 28.678217,
    "lon": 77.370911,
    "lines": [
      "red"
    ]
  },
  {
    "id": 68,
    "name": "Sikanderpur",
    "lat": 28.481352,
    "lon": 77.092995,
    "lines": [
      "yellow"
    ]
  },
  {
    "id": 148,
    "name": "Sikanderpur (Rapid Metro)",
    "lat": 28.480833,
    "lon": 77.094246,
    "lines": [
      "rapid"
    ]
  },
  {
    "id": 203,
    "name": "Sir Vishweshwaraiah Moti Bagh",
    "lat": 28.578529,
    "lon": 77.175713,
    "lines": [
      "magenta"
    ]
  },
  {
    "id": 206,
    "name": "South Extension",
    "lat": 28.5686,
    "lon": 77.219818,
    "lines": [
      "magenta"
    ]
  },
  {
    "id": 105,
    "name": "Subash Nagar",
    "lat": 28.640381,
    "lon": 77.10273,
    "lines": [
      "blue"
    ]
  },
  {
    "id": 166,
    "name": "Sukhdev Vihar",
    "lat": 28.559887,
    "lon": 77.275116,
    "lines": [
      "magenta"
    ]
  },
  {
    "id": 64,
    "name": "Sultanpur",
    "lat": 28.499214,
    "lon": 77.161362,
    "lines": [
      "yellow"
    ]
  },
  {
    "id": 91,
    "name": "Supreme Court",
    "lat": 28.623438,
    "lon": 77.2425,
    "lines": [
      "blue"
    ]
  },
  {
    "id": 104,
    "name": "Tagore Garden",
    "lat": 28.643795,
    "lon": 77.112747,
    "lines": [
      "blue"
    ]
  },
  {
    "id": 191,
    "name": "Terminal 1- IGI Airport",
    "lat": 28.565275,
    "lon": 77.122391,
    "lines": [
      "magenta"
    ]
  },
  {
    "id": 199,
    "name": "Tikri Border",
    "lat": 28.687876,
    "lon": 76.963783,
    "lines": [
      "green"
    ]
  },
  {
    "id": 198,
    "name": "Tikri Kalan",
    "lat": 28.686899,
    "lon": 76.977249,
    "lines": [
      "green"
    ]
  },
  {
    "id": 106,
    "name": "Tilak Nagar",
    "lat": 28.636568,
    "lon": 77.096336,
    "lines": [
      "blue"
    ]
  },
  {
    "id": 9,
    "name": "Tis Hazari",
    "lat": 28.667137,
    "lon": 77.216721,
    "lines": [
      "red"
    ]
  },
  {
    "id": 207,
    "name": "Trilokpuri Sanjay Lake",
    "lat": 28.613506,
    "lon": 77.308678,
    "lines": [
      "pink"
    ]
  },
  {
    "id": 137,
    "name": "Tughlakabad Station",
    "lat": 28.502232,
    "lon": 77.29866,
    "lines": [
      "violet"
    ]
  },
  {
    "id": 53,
    "name": "Udyog Bhawan",
    "lat": 28.611525,
    "lon": 77.210052,
    "lines": [
      "yellow"
    ]
  },
  {
    "id": 27,
    "name": "Udyog Nagar",
    "lat": 28.681047,
    "lon": 77.078674,
    "lines": [
      "green"
    ]
  },
  {
    "id": 109,
    "name": "Uttam Nagar East",
    "lat": 28.624643,
    "lon": 77.063126,
    "lines": [
      "blue"
    ]
  },
  {
    "id": 110,
    "name": "Uttam Nagar West",
    "lat": 28.621672,
    "lon": 77.055664,
    "lines": [
      "blue"
    ]
  },
  {
    "id": 72,
    "name": "Vaishali",
    "lat": 28.650059,
    "lon": 77.337608,
    "lines": [
      "blue"
    ]
  },
  {
    "id": 189,
    "name": "Vasant Vihar",
    "lat": 28.558378,
    "lon": 77.160774,
    "lines": [
      "magenta"
    ]
  },
  {
    "id": 45,
    "name": "Vidhan Sabha",
    "lat": 28.687845,
    "lon": 77.221626,
    "lines": [
      "yellow"
    ]
  },
  {
    "id": 221,
    "name": "Vinobapuri",
    "lat": 28.566179,
    "lon": 77.249367,
    "lines": [
      "pink"
    ]
  },
  {
    "id": 44,
    "name": "Vishwavidyalaya",
    "lat": 28.694765,
    "lon": 77.212418,
    "lines": [
      "yellow"
    ]
  },
  {
    "id": 5,
    "name": "Welcome",
    "lat": 28.671986,
    "lon": 77.277931,
    "lines": [
      "red"
    ]
  },
  {
    "id": 89,
    "name": "Yamuna Bank",
    "lat": 28.623178,
    "lon": 77.267937,
    "lines": [
      "blue"
    ]
  }
]